nombre,pais,latitud,longitud
Matinha,Brazil,-3.0854936,-44.9626829
Hainan,China,19.5663947,109.949686
Tysmenytsya,Ukraine,48.9001898,24.8519696
Shahr-e Şafā,Afghanistan,31.80347,66.32376
Lagoaça,Portugal,41.1933912,-6.7293601
Sangiang,Indonesia,-5.9536723,105.8495796
Mamurras,Albania,41.5780148,19.6966667
Calumpang,Philippines,14.6527027,121.0271174
Pamotan,Indonesia,-6.761747,111.486801
Bay Roberts,Canada,47.59989,-53.26478
Dondon,Haiti,19.5269646,-72.2437813
Dongbei,China,38.876483,121.549925
Alchevs’k,Ukraine,48.4713393,38.8134406
Longshan,China,42.901533,125.136451
Gampang,Indonesia,-7.482537,112.6004965
Al Hilāliyya,Sudan,14.9398,33.234
Nglengkong,Indonesia,-8.1095216,111.8330962
Qianqiao,China,30.972043,117.23282
Chandmanĭ,Mongolia,45.3369621,97.9685657
Krasnogorskiy,Russia,55.8174294,37.3727638
Huicungo,Peru,-7.3195036,-76.7769324
Xiushi,China,27.999411,115.932899
Krajanpagowan,Indonesia,-8.1297,113.1213
Konstantynów,Poland,52.2060223,23.083666
Zakan-Yurt,Russia,43.2588087,45.4197638
Songshu,China,39.827482,122.099452
Magaria,Niger,13.0034658,8.9079782
Sieniawa Żarska,Poland,51.6406279,15.0625181
Nikol’sk,Russia,60.0209443,44.9318159
Palon,Indonesia,-7.0124761,111.4812472
Zákupy,Czech Republic,50.6797247,14.6466542
Urus-Martan,Russia,43.1298714,45.5357156
Torre,Portugal,40.347979,-7.0160004
Tromsø,Norway,69.63186,18.9221
Dunhao,China,31.33343,108.377449
Nago,Japan,35.5205328,135.7708561
Emiliano Zapata,Mexico,19.3624962,-96.6565439
Voždovac,Serbia,44.6711569,20.5029521
Străşeni,Moldova,47.0739574,28.6801952
Saint Aubin,Mauritius,-20.495949,57.5497376
Trelew,Argentina,-38.7029444,-62.2654522
Itigi,Tanzania,-5.706302,34.4946697
San Guillermo,Philippines,16.7184323,121.97007
Plereyan,Indonesia,-8.0450166,113.87632
Ţammūn,Palestinian Territory,32.283121,35.385789
Qalyūb,Egypt,30.1762897,31.2067851
Karangduren Dua,Indonesia,-8.0604636,112.6285385
Rezé,France,46.349041,3.556485
Qārah,Syria,34.1540161,36.7442377
Manturovo,Russia,58.3227586,44.7564274
Uticyacu,Peru,-6.633333,-78.8
Masumbwe,Tanzania,-3.6528013,32.1611288
Uga,Nigeria,5.9353459,7.0794263
Las Breñas,Argentina,-27.0900609,-61.0797039
Qinnan,China,21.938859,108.657209
Kukawa,Nigeria,12.9229652,13.5639377
Kinamayan,Philippines,7.5617699,125.6532848
Dallas,United States,32.8094568,-96.889555
Libertad,Mexico,19.4779768,-99.1771001
Munggang,Indonesia,-6.7837708,107.8569988
Jijiga,Ethiopia,9.3567838,42.7955185
Borås,Sweden,57.7197857,12.933356
Jabłonka,Poland,49.494604,19.7094323
Palmasola,Venezuela,10.7244426,-68.5485631
Houjia,China,37.020948,122.093267
Nagai,Japan,38.5796262,141.2777515
Iwai,Japan,34.6718873,133.8964708
Sionogan,Philippines,6.00528,120.94861
Barreiros,Brazil,-8.8325814,-35.2807624
Xinjian,China,42.5246357,87.5395855
Bussum,Netherlands,52.2766397,5.162358
La Laja,Chile,-33.6167,-70.5667
Juru,Brazil,-7.4652278,-37.7662816
Zemlyansk,Russia,51.9041,38.7334
Xitou,China,29.866917,118.403786
Tsurib,Russia,42.2368,46.83073
Sete Cidades,Portugal,37.8589492,-25.7944989
Bizhbulyak,Russia,53.695696,54.276083
Bañga,Philippines,14.8866729,120.8678329
Gakem,Nigeria,6.7703871,8.9935558
Salamnunggal,Indonesia,-7.1045439,107.8961537
Luxor,Egypt,25.6872431,32.6396357
Thành Phố Uông Bí,Vietnam,21.081585,106.7470536
Little Rock,United States,34.7179437,-92.3714901
Kozyatyn,Ukraine,49.7149346,28.8363647
Padina,Serbia,45.1099868,20.7477906
Bashan,China,29.04797,105.944081
Lincheng,China,37.444498,114.498761
Gorelki,Russia,54.2474065,37.6031799
Sanyang,China,41.805699,123.431472
Lamovita,Bosnia and Herzegovina,44.9286321,16.9119159
Sacramento,United States,38.58,-121.49
Nancheng,China,27.569678,116.63704
Lobos,Argentina,-34.6234902,-58.4955016
Kuangyuan,China,32.435435,105.843357
Lakateng,Indonesia,-8.2357,124.9124
Muzambinho,Brazil,-21.35188,-46.4970116
Tambaksari,Indonesia,-7.2504446,112.7688416
Dingle,Philippines,10.9991938,122.6717828
Slavuta,Ukraine,50.2969058,26.8600648
Ribeirão das Neves,Brazil,-19.7619024,-44.0853572
Vänersborg,Sweden,57.9675068,12.577321
Dongjie,China,26.08603,119.3028774
Colos,Portugal,37.7340363,-8.4593678
Åtvidaberg,Sweden,58.2007895,15.9976985
Novokhovrino,Russia,55.86667,37.5
Cotaparaco,Peru,-9.9935309,-77.5862992
Guinobatan,Philippines,13.1870951,123.6222777
Murcia,Philippines,10.554131,123.0143845
São Gonçalo do Sapucaí,Brazil,-21.8930428,-45.5939292
Stari Bar,Montenegro,42.0963895,19.1359789
Dayou,China,26.141854,116.188408
Kallinge,Sweden,56.2270517,15.3137401
Patria,Philippines,14.6334992,120.9685838
Quimbaya,Colombia,4.625907,-75.761865
Lincuo,China,25.566959,119.381211
Bicurga,Equatorial Guinea,1.5837191,10.4705682
Biguo,China,37.22351,120.560079
Bukitkemuning,Indonesia,-4.9590869,104.5422225
Pancol,Philippines,10.9005556,119.4011078
Esuk Oron,Nigeria,4.9404494,8.317343
Daye,China,30.095643,114.979875
Boston,United States,35.9015016,-81.138279
Lunang,China,29.943539,94.799435
Madimba,Tanzania,-10.4,40.333333
Jamundí,Colombia,3.1377116,-76.5929658
Dasheng,China,31.961364,118.613379
Kurmanayevka,Russia,52.5093,52.0675
Náchod,Czech Republic,50.4145722,16.1656347
Iza,Ukraine,48.2162668,23.3302946
Shuangzhong,China,29.724589,116.245433
Kertanegla,Indonesia,-7.5293844,107.9591094
Tenja,Croatia,45.4835641,18.7768698
Biscoitos,Portugal,38.7921433,-27.2587935
Khisarya,Bulgaria,42.5043656,24.7062087
Malabag,Philippines,14.1399735,120.9620573
Soweto,South Africa,-26.2652787,27.9073244
Santiago de Subrrifana,Portugal,41.2185635,-8.3027037
Rat Burana,Thailand,13.6730341,100.5014909
Wairiang,Indonesia,1.1322476,104.0115689
Paris La Défense,France,48.892701,2.233089
Cimo de Vila,Portugal,42.0649631,-8.3756082
Ledeč nad Sázavou,Czech Republic,49.6951686,15.2777272
Lilla Edet,Sweden,58.1456847,12.1337569
Vilcún,Chile,-38.6677187,-72.2244406
Novaya Derevnya,Russia,59.6626986,30.0764476
Al Jubayhah,Jordan,32.0188765,35.881947
Maltahöhe,Namibia,-24.8380587,16.9801346
Ōmura,Japan,32.8744365,129.9735343
Anfeng,China,26.888665,112.616612
Saint-Denis,Reunion,-20.891394,55.5178001
Portel,Portugal,38.3089089,-7.7085755
Ārt Khwājah,Afghanistan,37.08571,69.47958
San Isidro,Philippines,9.939624,126.065213
Montauban,France,44.025555,1.378056
Grängesberg,Sweden,60.0715764,15.0050581
Penisihan,Indonesia,-7.5882979,109.1553021
Lyantonde,Uganda,-0.4075041,31.1567203
Cartagena,Spain,37.5968793,-1.0346774
Liuli,Tanzania,-11.08224,34.646118
Dazhou,China,31.209571,107.468023
Omu Aran,Nigeria,8.1402266,5.0963141
Ruukki,Finland,65.0588742,25.4549855
Hakha,Myanmar,22.6421087,93.6040527
Heka,China,24.4670098,118.0855763
Mingjing,China,31.189496,121.42185
Timbrangan,Indonesia,-6.8595223,111.4886997
Taytay,Philippines,10.9915855,119.5914817
Dinskaya,Russia,45.1242818,39.3719039
Yinkeng,China,38.5484731,-122.8049523
Liangting,China,30.543283,117.062623
Perez,Philippines,14.689167,120.9849216
Reuleuet,Indonesia,5.21667,96.28333
Pau,France,43.2916776,-0.3696612
Kraljevo,Serbia,43.7238483,20.6872542
Menara,Indonesia,-6.2323908,106.8318446
Anding,China,35.580629,104.610668
Padasono,Indonesia,-7.3559,107.8034
Idvor,Serbia,45.1870126,20.5134778
Liminka,Finland,64.8157528,25.433892
Hankasalmi,Finland,62.3658212,26.4532856
Sala,Sweden,59.9191985,16.6108335
Marignane,France,43.4462218,5.2254137
Malesína,Greece,38.6226736,23.2352639
Culubasa,Philippines,15.1422858,120.6541966
Nangela,Indonesia,-7.3405276,106.7057733
Nankeng,China,32.060255,118.796877
Jukui,China,27.1574303,117.3011656
Beitai,China,21.481291,109.120161
Talashkino,Russia,54.6567593,32.1804491
Bloemhof,South Africa,-27.641736,25.5710689
Herzliya Pituah,Israel,32.174202,34.802932
Lecherías,Venezuela,10.19062,-64.6866092
Mosteiro,Portugal,41.7977426,-8.4531054
Garmo,China,31.254198,94.915316
Maksatikha,Russia,57.6044065,35.9190561
Tongtuan,China,23.020673,113.751799
Przyborów,Poland,49.617087,19.353513
Jauja,Peru,-11.7806236,-75.4869033
Goodlands,Mauritius,-20.0391408,57.6495717
Xilong,China,23.4082065,116.6878891
Sudislavl’,Russia,57.8773671,41.7123719
Šenčur,Slovenia,46.2433699,14.4192223
Grabovci,Croatia,43.8499847,15.7667685
Yeosu,South Korea,34.7603737,127.6622221
Beidao,China,26.091588,119.303552
Fojo,Portugal,40.9860764,-8.530048
Bacacay,Philippines,13.2979317,123.7802005
Doumuhu,China,28.947331,111.633245
Oslo,Norway,59.9050895,10.7673005
Wenjiao,China,19.7206,110.460225
Saravia,Philippines,10.8780876,122.981075
Guantouzui,China,39.8032712,113.9849159
Loei,Thailand,17.4605379,101.7523854
Canindé,Brazil,-4.3681626,-39.4035876
La Garenne-Colombes,France,48.9066299,2.2456603
Monte Carmelo,Brazil,-18.7307117,-47.4916674
Helsingborg,Sweden,56.0485726,12.6933337
Zheleznogorsk-Ilimskiy,Russia,56.6175886,104.1948978
Turba,Estonia,59.0800798,24.2361948
Ōno-hara,Japan,37.3420459,140.5649671
Otjimbingwe,Namibia,-22.3531369,16.1286901
Gufeng,China,30.983057,117.099325
Bronnitsy,Russia,55.4055305,38.2447393
Gaomi,China,36.377539,119.757032
Tbilisskaya,Russia,45.3913779,40.1763516
Mysove,Ukraine,45.4451601,35.8363269
Fuqiang,China,25.721143,119.384334
Olmos,Peru,-5.9873416,-79.7455956
Checacupe,Peru,-14.0260541,-71.4544256
Pedro García,Dominican Republic,18.4668424,-69.2888011
Cijayana,Indonesia,-7.5352682,107.5682677
Hejiang,China,29.1416432,119.7889248
Chrzanów,Poland,50.404585,20.9948039
Swedru,Ghana,5.5298168,-0.705779
Durrës,Albania,41.3245904,19.4564686
Wisła,Poland,49.6308644,18.8985165
Hujirt,Mongolia,46.9063815,102.7636515
Atlantis,South Africa,-33.5938745,18.5268253
Tsaghkahovit,Armenia,40.6379848,44.2249621
Jayune,Peru,44.6233945,-73.5346134
Baiqi,China,24.880992,118.71899
Toutosa,Portugal,41.2212595,-8.1439987
Lushuihe,China,28.46763,119.922796
Barice,Bosnia and Herzegovina,43.8903154,18.4410798
Brongkalan,Indonesia,-7.2575,112.7674
Aoji-ri,North Korea,42.52056,130.39528
Zhuanshui,China,23.992676,115.703598
Mişrātah,Libya,32.3196827,15.1025075
Dąbrowa,Poland,52.7704654,17.9583306
Anau,French Polynesia,-17.3878955,-145.582949
Shah Alam,Malaysia,3.0100681,101.5326734
Malambo,Colombia,10.837327,-74.8390162
Åtvidaberg,Sweden,58.1628402,16.3083468
Laboulaye,Argentina,-31.4834373,-64.2145666
Thành Phố Bà Rịa,Vietnam,10.508928,107.1816257
Chutove,Ukraine,49.7180346,35.1228303
Kebonjaya,Indonesia,-7.6609976,112.8968078
Gračec,Croatia,45.8361987,16.3077813
Trashigang,Bhutan,27.3325014,91.5523435
Ţahţā,Egypt,26.7647964,31.4982868
Dzięgielów,Poland,49.7073884,18.7184096
Hafnarfjörður,Iceland,64.0516089,-21.986995
Fonte,Portugal,41.308715,-8.1332997
Halmstad,Sweden,56.6495031,12.7902265
Chumphon Buri,Thailand,15.787156,104.1478667
Molina,Chile,-35.1164987,-71.2829759
Jiangzhang,China,29.482105,86.228141
Shah Alam,Malaysia,3.0100681,101.5326734
Bugojno,Bosnia and Herzegovina,44.0562486,17.4498275
Taurage,Lithuania,55.4046005,22.5703273
Gaoshan,China,26.682871,100.109307
Santa Cruz,Mexico,19.6938888,-99.2591666
Pouébo,New Caledonia,-20.3992407,164.5870829
Stari Grad,Croatia,43.1839958,16.5992505
Taipinghu,China,53.3004898,-6.2634596
Taibai,China,34.058401,107.319116
Liudaogou,China,40.513357,96.769073
Tagbilaran City,Philippines,9.6399306,123.8572829
Patrocínio,Brazil,-18.998706,-47.058302
Puncakwangi,Indonesia,-7.2953035,107.0716609
Chimanimani,Zimbabwe,-19.8,32.866667
Židlochovice,Czech Republic,49.0395242,16.6188111
Sotíra,Cyprus,35.0072371,33.9359756
Zhyrovichy,Belarus,53.0131368,25.3425332
Vrbovec,Czech Republic,48.7974858,16.1084808
Xiting,China,32.117935,121.009708
Ţāqchah Khānah,Afghanistan,36.61922,69.62805
La Habana Vieja,Cuba,23.1343601,-82.3533266
Kayl,Luxembourg,49.4941103,6.0360933
Op,Indonesia,-9.9234974,124.649701
Guluoshan,China,29.57858,110.191933
Gludug,Indonesia,-8.1221236,112.0640052
Pachīr wa Āgām,Afghanistan,34.0740905,70.2884528
Jiangti,China,27.0874564,114.9042208
Changyŏn,North Korea,38.2527464,125.0911142
Telaga,Indonesia,-6.981636,108.308502
Bykov,Russia,47.335609,142.5504149
Lyuboml’,Ukraine,51.2329872,24.0364394
Yixing,China,31.340637,119.823308
Tukums,Latvia,56.969664,23.15319
Skwierzyna,Poland,52.5967759,15.5140181
Zhangjiaji,China,29.117096,110.479191
Butiama,Tanzania,-1.7669836,33.9694276
Kōchi-shi,Japan,33.6450129,133.4789243
Veselí nad Lužnicí,Czech Republic,49.2275285,14.7209457
San Salvador,El Salvador,13.6929403,-89.2181911
Lupao,Philippines,15.847683,120.9187827
Palcamayo,Peru,-11.2957096,-75.7727595
Jistebník,Czech Republic,49.7523172,18.1313741
Municipio de Copacabana,Colombia,6.323976,-75.4985521
Firmat,Argentina,-33.453544,-61.486922
Chilly-Mazarin,France,48.7037515,2.3056035
Nong Khai,Thailand,17.8895907,102.579531
Ryazan’,Russia,54.6192996,39.8560057
Horton,United Kingdom,51.5598572,-2.3523889
Richky,Ukraine,51.1164143,34.4870021
Kiên Lương,Vietnam,10.3043903,104.6354631
Manfalūţ,Egypt,27.3115158,30.9713333
Orodo,Nigeria,5.6165948,7.0364022
Mae Sai,Thailand,20.4225249,99.9185708
Vale de Figueira,Portugal,38.8208757,-9.1030431
Muikamachi,Japan,38.2589551,140.3422958
Mijiang,China,26.855047,100.22775
Padaran,Indonesia,-6.7115834,111.3947978
Kavieng,Papua New Guinea,-2.5781167,150.8086082
Huangji,China,31.231521,121.45076
Zgornje Bitnje,Slovenia,46.2209242,14.3353423
Kimakamak,Indonesia,-8.301579,123.0648331
Danao,Philippines,9.9578348,124.1789637
Macabugos,Philippines,13.2606549,123.3710571
Warungawi,Indonesia,-6.9560364,107.4135643
Belajen,Indonesia,-3.3226005,119.8245506
Toulouse,France,43.8273805,1.3951553
Lesozavodsk,Russia,45.323812,133.4113691
Thị Trấn Việt Quang,Vietnam,22.4177717,104.8104424
Longaví,Chile,-35.9636265,-71.6831251
Kusi,Indonesia,-10.0274881,124.4752715
Choushui,China,28.590337,105.697472
Vallentuna,Sweden,59.6535297,18.3648033
Lindavista,Mexico,19.5037694,-99.1324282
Tuscaloosa,United States,33.207199,-87.5482025
Orange,France,44.1372925,4.810107
Limoeiro do Norte,Brazil,-5.1443118,-38.0850339
Huyang,China,22.9353419,113.6587617
Pasirhuni,Indonesia,-7.0970638,107.5771444
Langford,Canada,48.4474626,-123.4956337
Guogan,China,23.2878976,113.8374236
New York City,United States,40.7582228,-73.9704871
Dobřany,Czech Republic,50.322121,16.2852974
Muarabadak,Indonesia,-0.3662126,117.4086488
Puerto Berrío,Colombia,6.477755,-74.4088
Cisasak,Indonesia,-6.5687237,106.6491595
Yushikalasu,China,46.71034,84.046436
Fengting,China,25.22796,106.78953
Poddębice,Poland,51.8803457,18.9033376
Qitai,China,44.022066,89.593967
Voyskovitsy,Russia,59.538889,29.9194439
Denver,United States,39.7446895,-104.9933772
Piketberg,South Africa,-32.90269,18.7671299
Bassano,Canada,50.78342,-112.46854
Hanyuan,China,29.344616,102.652483
Santo Domingo de los Colorados,Ecuador,-0.2389045,-79.1774268
Escola,Portugal,41.3199734,-7.9720237
Cisantri,Indonesia,-7.068288,106.8953043
Cishangang,China,31.072149,119.549715
Dongchong,China,22.884636,113.454975
Kieta,Papua New Guinea,-6.2204747,155.6376301
Satita,Syria,34.8190348,36.1192307
Qingshan,China,30.63963,114.385538
Foumbouni,Comoros,-11.8648237,43.492161
Duma,China,37.5957943,107.411996
Orlovskiy,Russia,51.0692,114.7465
Igarapava,Brazil,-20.0421785,-47.7563994
Qianshan,China,41.068909,122.949298
Santo Niño,Philippines,14.3839328,121.050126
San Joaquin,Philippines,10.586582,122.142091
Lisala,Democratic Republic of the Congo,2.1701072,21.4872092
Corga,Portugal,40.5126881,-8.1587128
Montelíbano,Colombia,7.9500846,-75.3594016
Tanjung Kidul,Indonesia,-7.4394897,109.2251697
Al Manqaf,Kuwait,29.1070609,48.1239894
Corralito,Argentina,-33.0061376,-60.6722815
Longzhou,China,22.342771,106.854376
La Gi,Vietnam,10.71574,107.7991545
Yangiobod,Uzbekistan,41.1155359,70.1039032
Habiganj,Bangladesh,24.4771236,91.4506565
El Ksour,Tunisia,35.8875895,8.8886672
Chodzież,Poland,52.995267,16.9198184
Horad Barysaw,Belarus,54.2144309,28.5084359
Rokietnica,Poland,52.5094874,16.7474972
Mananum,Philippines,8.920465,125.008956
Rumelange,Luxembourg,49.4604602,6.0280525
Xidajie,China,34.2579981,108.9422832
Shejiang,China,29.1416432,119.7889248
Bowen Island,Canada,49.3637828,-123.2679395
Saverne,France,48.73934,7.3660499
Tālīn,Syria,35.14849,36.03288
Alapayevsk,Russia,57.8352611,61.6978774
Massakory,Chad,12.9953534,15.7321831
Oranzherei,Russia,45.84756,47.56635
Hele,China,18.903521,110.477642
Sidi Amar,Morocco,32.966667,-5.866667
Ortega,Colombia,3.8366437,-75.2245693
Ruoqiang,China,39.024258,88.166695
Mamara,Peru,-14.23792,-72.591949
Delgermörön,Mongolia,46.516667,98.35
Bang Saphan,Thailand,11.1148457,99.4450439
Užice,Serbia,43.8554024,19.8420937
Granica,Poland,50.6696898,18.2791747
Krumvíř,Czech Republic,48.9893868,16.9151793
Hetai,China,23.350767,112.284638
Butembo,Democratic Republic of the Congo,0.114047,29.3018011
San Juan de Dios,Costa Rica,9.879065,-84.081486
Hovtashen,Armenia,40.0249257,44.4540632
Sanshilipu,China,36.853122,116.090605
Chojnice,Poland,53.6944002,17.5569252
Castanhal,Brazil,-1.3050431,-47.9340343
Sosándra,Greece,40.9993168,22.0336319
Sernovodsk,Russia,53.9256842,51.2577545
Nîmes,France,43.8324929,4.3662321
Xinpo,China,29.536212,104.189955
Kitakyūshū,Japan,33.8580586,130.7620202
Shaxi,China,26.312444,99.850365
Furmanov,Russia,57.2331599,41.0611975
Šentvid pri Stični,Slovenia,45.9536011,14.8386368
Eguia,Philippines,15.9042688,119.8863306
Meiyuan,China,31.27707,119.567195
Anaráchi,Greece,40.4925406,21.5714154
Krzynowłoga Mała,Poland,53.1458749,20.8157058
Tiandiba,China,28.721763,108.389861
Pavia,Portugal,38.8944448,-8.0208303
Al Maḩallah al Kubrá,Egypt,30.9781287,31.162448
La Serena,Chile,-29.9026691,-71.2519374
Penghua,China,29.655143,121.406995
Bajiao,China,19.233277,109.412626
Boco,Portugal,39.8647755,-8.9052753
Srinjine,Croatia,43.486492,16.5996595
Senangkhanikhom,Thailand,16.0445969,104.669996
Jinghai,China,38.947512,116.97413
Guarapari,Brazil,-20.6741197,-40.4997382
Gandong,Indonesia,-7.3966297,111.5498112
San Jose,Mexico,18.8962696,-96.9417785
Ujungpangkah,Indonesia,-6.9353179,112.548349
Eláteia,Greece,38.6276904,22.7650721
Fengyang Fuchengzhen,China,32.871671,117.56024
Novoye Leushino,Russia,56.81,40.51
Chiara,Peru,-13.87016,-73.667793
Municipio de Copacabana,Colombia,6.323976,-75.4985521
Sindangsari,Indonesia,-7.811056,108.438797
Paris 19,France,43.4945737,5.8978018
Matsushima,Japan,38.3691874,141.059301
Lagny-sur-Marne,France,48.9097908,2.7104352
El Pino,Honduras,15.7193344,-86.9173327
Jixing,China,30.753924,120.758543
Polzela,Slovenia,46.280897,15.0737321
Camangcamang,Philippines,10.1206819,122.9809409
Maroúsi,Greece,38.0549562,23.807655
Port-Vila,Vanuatu,-17.7332512,168.3273245
Talcahuano,Chile,-36.7247834,-73.1169808
Las Parejas,Argentina,-34.5872079,-58.494505
Kozhva,Russia,66.5299478,66.6127258
Ushirombo,Tanzania,-3.4944313,31.9899648
Gävle,Sweden,60.706979,17.1401083
Bīr Nabālā,Palestinian Territory,31.851182,35.200835
Ciudad Choluteca,Honduras,13.3198572,-87.1622344
Amherst,Canada,45.8299686,-64.2092372
Kalloní,Greece,39.233118,26.2072301
Monywa,Myanmar,22.1215513,95.1536327
Letsheng,Botswana,-22.6700589,27.225321
Gniechowice,Poland,50.98804,16.83363
Maïné Soroa,Niger,13.2143917,12.0289902
Aramecina,Honduras,13.7401075,-87.7135671
Provins,France,48.5625988,3.3093771
Qingshui,China,34.749864,106.137293
Doropeti,Indonesia,-8.3501717,117.9483319
Nahāvand,Iran,34.188318,48.3688834
Daming,China,36.285616,115.147814
Yuanguping,China,29.008818,110.733813
Gowurdak,Turkmenistan,37.8163881,66.0285106
Kināna,Sudan,14.0361,33.1712
Santa Rita,Bolivia,-17.9808139,-63.3697226
Nirji,China,48.48333,124.48333
Nianba,China,31.839084,106.763842
Kongjiang,China,29.686366,89.208761
Pulau Pinang,Malaysia,5.414515,100.329744
Thanh Ba,Vietnam,21.4677045,105.1492869
Funes,Colombia,1.001167,-77.448926
Ramos West,Philippines,16.7054663,121.672666
Bussum,Netherlands,52.2766397,5.162358
Klobuky,Czech Republic,50.2940131,13.9874928
Lingyuan,China,41.245445,119.4015739
Lewobelek,Indonesia,-8.3104,123.229
Vysokogornyy,Russia,43.6296613,39.705727
Santa Bárbara,Venezuela,7.8129929,-71.1745579
Bojnik,Serbia,43.0173794,21.7228156
Feni,Bangladesh,23.0356299,91.4828056
Bishan,China,29.592024,106.227305
Cascavel,Brazil,-24.9288708,-53.4392535
Guyang,China,26.647661,106.630153
Rodhítsa,Greece,38.88829,22.4641
Yangyuan,China,40.104663,114.150348
Montpellier,France,47.3752386,-0.8453268
Valladolid,Spain,41.6704519,-4.7135268
Yonglong,China,25.416658,115.935862
Juripiranga,Brazil,-7.3554007,-35.2258365
Ayapel,Colombia,8.1607397,-75.1078332
Batang,Indonesia,-7.0392183,109.9020509
Dado,Philippines,8.5052219,125.9753765
Cervantes,Philippines,14.4712676,121.0441201
Nacimiento,Chile,-37.5059062,-72.6737875
Dar es Salaam,Tanzania,-6.792354,39.2083284
Tacheng,China,46.748522,82.978928
Al Ḩawāmidīyah,Egypt,29.9,31.25
Jesenice,Croatia,43.4617173,16.5989466
Hamburg,Germany,53.5900195,9.9897946
Carolina,South Africa,-26.0730802,30.1069594
Alcala,Philippines,17.902174,121.653543
Dióni,Greece,38.020906,23.9325441
Gradishtë,Albania,40.8875343,19.5880506
Saribudolok,Indonesia,2.9370409,98.611191
Nový Bor,Czech Republic,50.7576138,14.5555639
San Pedro,Bolivia,-16.5030766,-68.1346594
Słotowa,Poland,49.9444329,21.2934649
Las Higueras,Argentina,-37.9361202,-57.5552203
Sarangmeduro,Indonesia,-6.7369905,111.6694262
Köln,Germany,50.9093945,7.0486698
Steinkjer,Norway,64.012788,11.487163
Sydney,Australia,-33.7974423,151.2502275
Kuluran,Indonesia,-6.9996952,112.4142453
Sierra Imataca,Venezuela,7.75,-61
Folques,Portugal,40.2221306,-8.0122102
Malino,Philippines,14.295795,120.9905117
San Miguelito,Panama,9.0707553,-79.4816378
El Valle del Espíritu Santo,Venezuela,10.9811398,-63.8788287
San Pedro Necta,Guatemala,15.4910185,-91.765785
Beaverton,United States,45.4863306,-122.8020059
Vincennes,France,44.8178615,-0.2498116
Mina de São Domingos,Portugal,37.6729124,-7.4966456
Haolin,China,31.859653,120.558606
Jinchuan,China,38.521085,102.194089
Manalongon,Philippines,9.2214675,122.8845373
København,Denmark,55.6649287,12.5504728
Huangbei,China,24.412155,115.744112
Courtaboeuf,France,48.695223,2.190167
Puteaux,France,48.8834605,2.2335234
Jiaozuo,China,35.215892,113.241823
Brest,France,48.3909721,-4.4854059
Georgetown,Saint Vincent and the Grenadines,13.28386,-61.1213871
Presidencia Roque Sáenz Peña,Argentina,-34.6045775,-58.3799949
El Charco,Colombia,2.0560112,-77.5160788
Krahës,Albania,40.4407041,19.8451169
Karangtengah,Indonesia,-6.8008183,107.1781769
Naples,United States,26.132433,-81.7951054
Sayang Lauq,Indonesia,-8.5694,116.1325
Cerro Colorado,Uruguay,-33.8603461,-55.5441311
Macabugos,Philippines,13.2606549,123.3710571
Terre Haute,United States,39.4596137,-87.3478243
Sierpc,Poland,52.8568142,19.669432
Ilebo,Democratic Republic of the Congo,-4.3253802,20.5870955
Qiaoxi,China,38.004153,114.461066
Irkutsk,Russia,52.2445931,104.2483085
Barretos,Brazil,-20.5558832,-48.5762695
Sairam,China,27.6985161,85.3117065
Camp Thorel,Mauritius,-20.210385,57.6240731
Kota Kinabalu,Malaysia,5.9840985,116.0761121
Ashford,Ireland,53.385304,-6.3828795
Sabanalarga,Colombia,4.8413815,-72.9899505
Guishan,China,22.141482,113.83012
Sumbergayam,Indonesia,-8.1067604,111.8240676
Karuk,Indonesia,-6.2845079,107.4006862
Falun,Sweden,60.6221986,15.6073973
Rixi,China,28.856082,93.388853
Maying,China,38.235041,115.726317
Taishanmiao,China,34.074131,108.158909
Ash Shawātī,Yemen,16.78314,43.81265
Tandil,Argentina,-34.6645787,-58.5055758
Thị Trấn Phù Yên,Vietnam,21.2648137,104.6427499
Zhyrovichy,Belarus,53.0131368,25.3425332
Donggang,China,39.863008,124.1527051
Nuevo Arraiján,Panama,8.9308058,-79.7343791
Luhyny,Ukraine,51.0836752,28.4004787
San Jose,Mexico,25.8007724,-100.4277766
Balugo,Philippines,9.364014,123.2468727
Wosai,China,36.962751,100.901228
Kamen,Croatia,43.5111646,16.5201503
Kirovs’k,Ukraine,48.6354729,38.6373937
Hallstahammar,Sweden,59.6132041,16.2294755
Beya,Russia,53.0475258,90.944621
Xiabuji,China,26.885704,120.005147
Atakpamé,Togo,7.5286908,1.1305049
Haumeni,Indonesia,-9.8895144,124.6552328
Zitong,China,31.642718,105.170845
Massaranduba,Brazil,-26.6119534,-49.0075714
Pajé,Comoros,-12.1768359,44.3862983
Velká Bíteš,Czech Republic,49.290817,16.2263509
Syktyvkar,Russia,45.0052663,41.1199008
Pechenizhyn,Ukraine,48.5184268,24.8858948
Pumaqangtang,China,28.599774,90.204816
Gunjur,Gambia,13.1806725,-16.7559004
Pingya,China,37.189822,112.176206
Andou,China,32.990027,101.56916
Tushi,China,25.521039,112.309325
Wanmao,China,34.799642,103.202869
Tanahwulan,Indonesia,-8.0038635,113.7216313
Paracambi,Brazil,-22.6083065,-43.7112547
Korem,Ethiopia,12.5073384,39.5200688
Gampingan,Indonesia,-8.1968847,112.5304693
Huddinge,Sweden,59.2891092,18.0509133
Mamuša,Kosovo,42.3273306,20.7226764
Osilnica,Slovenia,45.5291637,14.6984205
Pochuta,Guatemala,14.5444432,-91.0891378
Dudchany,Ukraine,47.1860699,33.7785346
Silveiros,Portugal,41.4655177,-8.577596
Ţayyibat al Imām,Syria,35.2662059,36.7118971
Tuba,China,36.1228302,-111.2236913
Gilowice,Poland,49.7053824,19.2911275
Concepción,Bolivia,-16.131343,-62.0399534
Shanhou,China,23.354091,116.681972
Oslo,Norway,59.9531666,10.7559072
Esmeraldas,Ecuador,0.9681789,-79.6517202
Chahe,China,19.238934,108.957345
Praingkareha,Indonesia,-10.0188555,120.0549683
Libas,Philippines,15.8785099,120.3186429
Fenghuo,China,34.554624,108.631718
Zaragoza,Spain,41.6286623,-0.8744828
Zhuyu,China,39.806392,116.4442469
Niemodlin,Poland,50.6422,17.61989
Angoram,Papua New Guinea,-4.0438672,144.0711745
Dzüünkharaa,Mongolia,48.63333,106.73333
Linjiang,China,41.811979,126.918087
Ventspils,Latvia,57.3937216,21.5647066
Ntonggu,Indonesia,-8.5314465,118.7780987
Eskilstuna,Sweden,59.397367,16.4816867
Lirung,Indonesia,3.9572072,126.6795425
Dois Portos,Portugal,39.0369331,-9.1809626
Liulin,China,37.429832,110.88907
Codoi,China,30.466314,92.55497
Cijoho,Indonesia,-6.971971,108.4943751
Hwawŏn,South Korea,35.8037979,128.5005419
Al Manāqil,Sudan,14.2549626,33.000095
Houjie,China,22.935289,113.670324
Senduro,Indonesia,-8.0295271,113.0369406
Kuluran,Indonesia,-6.9996952,112.4142453
Lijiapu,China,29.49574,111.926694
Calimete,Cuba,22.5364306,-80.9055645
Magapit,Philippines,18.1219608,121.6723186
Kebonkalapa,Indonesia,-6.8353111,107.9561464
Żarki-Letnisko,Poland,50.6230724,19.2750867
Jardim,Brazil,-21.4803962,-56.1494143
Colcabamba,Peru,-12.4,-74.7
Fátima,Portugal,39.6208162,-8.6563967
Leuwayang,Indonesia,-8.2285121,123.7433907
Lecherías,Venezuela,10.19062,-64.6866092
Graksop,South Africa,-24.6258027,30.7565467
Camabatela,Angola,-8.1874595,15.3745964
Pittsburgh,United States,40.44,-79.98
Kista,Sweden,59.4013379,17.9291325
Morteros,Argentina,-31.4311903,-62.0729285
Debre Tabor,Ethiopia,11.8566874,38.015522
Ipoh,Malaysia,4.6096768,101.1064003
Nagbalaye,Philippines,9.2524087,122.874409
Madrid,Spain,40.4869744,-3.6116494
Skövde,Sweden,58.4005878,13.7982616
Novosineglazovskiy,Russia,55.0359955,61.3717568
Radocza,Poland,49.917089,19.468167
Knyazhichi,Ukraine,50.4553587,30.7716386
Norrtälje,Sweden,59.7620958,18.7017911
Shuangtian,China,29.053409,117.162127
Hanfeng,China,23.084827,113.290609
Velký Újezd,Czech Republic,49.5784817,17.4835513
Puyung,Indonesia,-8.6899169,116.2393209
Yŏnggwang-ŭp,North Korea,40.01833,127.45472
Thị Trấn Nguyên Bình,Vietnam,22.6594661,105.9641124
Xiaolongmen,China,40.412369,117.103146
Chaupimarca,Peru,-10.6823922,-76.2482052
Kičevo,Macedonia,41.0417485,21.2277415
Žamberk,Czech Republic,50.0873009,16.4652007
Chum Phae,Thailand,16.5235265,102.0832543
Porto Velho,Brazil,-8.7611605,-63.9004303
Wufeng,China,30.199688,110.674706
Jackson,United States,32.3361632,-90.1565209
Quatro Barras,Brazil,-25.3631459,-49.0801588
Uwajima,Japan,33.24846,132.6146565
Wates,Indonesia,-7.893728,110.1434668
Niyang,China,36.097577,114.392392
Mombok,Indonesia,-8.650979,116.3249438
Schirmeck,France,48.4990903,7.3118635
Tân Trụ,Vietnam,10.5280095,106.4994889
Behbahān,Iran,30.5911589,50.234745
Saint-Avold,France,49.1112563,6.7220343
Timbaúba,Brazil,-7.5085719,-35.3126181
Patea,New Zealand,-39.7466346,174.5134204
Pasirnangka,Indonesia,-6.5792655,106.2698669
Azteca,Mexico,25.6845646,-100.2417875
Semalang,Indonesia,-7.0051453,110.4381254
Praia Grande,Brazil,-24.0088421,-46.4124616
San Vicente Centenario,Honduras,14.8886565,-88.2777465
Paris 11,France,48.8610504,2.3237084
Bordeaux,France,45.697904,0.964671
El Ingenio,Peru,-14.65067,-75.0634
Sihe,China,39.91983,116.41571
Mukō,Japan,34.9565646,135.7023712
Zhengcun,China,28.955847,114.532957
Oslo,Norway,59.9494208,10.9243808
Gaoyan,China,46.9758047,128.0462031
Nova Olímpia,Brazil,-23.4739979,-53.088539
Burujul,Indonesia,-6.8754582,108.1308481
Qingnianlu,China,43.918776,125.2907021
Bileća,Bosnia and Herzegovina,42.8756616,18.4292187
Lusacan,Philippines,13.952977,121.341718
Ar Rubū‘,Yemen,13.78024,43.86901
Sahavato,Madagascar,-20.6,48.33333
Penelas,Portugal,41.5725857,-8.129315
Lokot’,Russia,51.6698819,34.21546
Damaturu,Nigeria,11.7469961,11.9661922
Lukavice,Czech Republic,49.8229025,16.9204034
Caraballeda,Venezuela,10.6135398,-66.8498883
Nong Kung Si,Thailand,16.7136708,103.3125299
Ogden,United States,41.2,-111.98
Jega,Nigeria,12.2257507,4.3822109
Przybiernów,Poland,53.7721333,14.7790457
Lingcheng,China,37.335794,116.576092
Ban Phue,Thailand,15.1751306,99.7509296
Santa Helena de Goiás,Brazil,-17.8119748,-50.5981252
Xibu,China,23.696329,117.433977
Washington,United States,38.9003669,-77.0351137
Luže,Czech Republic,49.893413,16.028504
Kinh Môn,Vietnam,21.0110318,106.5273651
Washington,United States,42.5420213,-91.1118075
Liuhuang,China,23.913205,116.464983
Skýros,Greece,38.8162965,24.5955356
Cabatang,Philippines,9.9213559,124.4318122
Sitampiky,Madagascar,-16.67787,46.109699
Sancha,China,40.570338,116.554665
Tochio-honchō,Japan,35.6963947,139.6800321
Lagoa Seca,Brazil,-7.1580805,-35.8549426
Armash,Armenia,39.76624,44.8087498
Makar’yev,Russia,57.8814317,43.8050354
Lambangan Kulon,Indonesia,-6.8229172,111.3545546
Kisarawe,Tanzania,-7.2623348,38.7368187
Río Sereno,Panama,8.8287071,-82.864463
Itinga,Brazil,-16.5625267,-41.8402054
Fengyi,China,40.8246053,-73.112232
Yefremov,Russia,53.0641593,38.0521393
Hongshi,China,29.891868,119.574295
Novyye Gorki,Russia,56.7279731,41.0643386
Tysmenytsya,Ukraine,48.9001898,24.8519696
Xiangshan,China,29.476705,121.869339
Tatebayashi,Japan,36.2761885,139.5356365
Xinpo,China,29.536212,104.189955
Curitibanos,Brazil,-27.3226376,-50.6378804
Hancheng,China,35.476788,110.442846
Skorogoszcz,Poland,50.7592361,17.6835478
Kabulusan,Philippines,14.6465082,120.9731375
Šventoji,Lithuania,55.2474741,24.7743055
Chimboy Shahri,Uzbekistan,42.92952,59.78199
Uritsk,Russia,59.82941,30.1775921
Shiren,China,28.6517036,117.9041296
Weishan,China,25.227212,100.307174
Whitchurch,United Kingdom,51.4057505,-2.5573746
Bzou,Morocco,32.0860889,-7.0552218
Daliyuan,China,25.387227,98.43503
Sorol,Micronesia,8.1333333,140.4108333
Sayansk,Russia,54.1491581,91.8814443
Budapest,Hungary,47.4325252,19.157136
Maclear,South Africa,-31.06523,28.3345399
Ajaccio,France,46.6473105,0.813275
Trinidad,Cuba,21.7960343,-79.9808143
Uruobo-Okija,Nigeria,5.9,6.833333
Haihui,China,35.5925398,118.815842
Banjar Pande,Indonesia,-8.5894351,115.1417784
Kokop,Indonesia,-6.9794957,113.0607675
Velille,Peru,-14.51688,-71.88636
Huancheng,China,30.940195,118.75868
Jinghong,China,22.000143,100.771678
Taipei,Taiwan,25.0329694,121.5654177
Yuli,China,41.343933,86.261321
Osieck,Poland,51.965973,21.419225
Maltahöhe,Namibia,-24.8380587,16.9801346
Kemil,Indonesia,-2.945569,104.7334404
Tunja,Colombia,5.4827405,-73.4062342
North Shore,New Zealand,28.0178637,-80.7023819
Banjar Brahmanabukit,Indonesia,-8.4399,115.3561
Tzaneen,South Africa,-25.790615,28.3323137
Neryungri,Russia,56.9115826,124.9032167
Bautista,Philippines,14.5609722,121.0224008
Daduchuan,China,47.182723,123.00932
Qiaochong,China,22.920341,115.789204
Itoman,Japan,26.1288392,127.6681281
Majengo,Tanzania,-8.8924352,33.4348492
Ulyanovsk,Russia,54.2866841,48.2335118
Turmus‘ayyā,Palestinian Territory,32.032726,35.288375
Liudu,China,23.07555,112.007814
Zonghan,China,30.184907,121.227926
San Pedro Masahuat,El Salvador,13.5432995,-89.038242
Usatove,Ukraine,46.5328668,30.6579315
Majiang,China,26.491105,107.589359
Santa Cruz,Philippines,13.0748879,120.7213113
Kōfu-shi,Japan,35.649152,138.5884549
Shantou,China,23.354091,116.681972
Mós,Portugal,41.1112427,-7.2005033
Nazir Town,Pakistan,31.5064623,74.3268113
Van Nuys,United States,34.1985119,-118.4980744
Arganil,Portugal,40.2187855,-8.0537529
Orléans,France,47.3591366,2.8002946
Emiliano Zapata,Mexico,18.8478608,-99.1843676
Xiamayu,China,39.401147,113.115161
Bandhagen,Sweden,59.2542117,18.027354
Sundbyberg,Sweden,59.3770112,17.9485065
Richmond,United States,37.4040147,-77.4587239
Raojān,Bangladesh,22.5250447,91.9196949
Independencia,Mexico,19.4137276,-102.0662939
Novovorontsovka,Ukraine,47.498123,33.9169021
Yinchuan,China,38.487193,106.230908
Carrières-sur-Seine,France,48.911035,2.16555
Xiaolongmen,China,40.412369,117.103146
Lipie,Poland,51.014655,18.8071072
Okigwi,Nigeria,5.8192832,7.3408535
Otutara,French Polynesia,-17.76667,-149.41667
Ismailia,Egypt,30.5964923,32.2714587
Shilovo,Russia,54.2637785,40.9511355
Nevyts’ke,Ukraine,48.6769923,22.3927591
Ténenkou,Mali,14.4590296,-4.9169196
Rzewnie,Poland,52.8234799,21.3426286
Chartres,France,48.5308416,1.4534246
Rakai,Uganda,-0.7069135,31.5370003
Lapas,Portugal,39.5068579,-8.555621
Costeira do Pirajubae,Brazil,-27.6349915,-48.5219457
Évry,France,48.6047256,2.430785
Koszyce Wielkie,Poland,49.9776657,20.9421091
Itapemirim,Brazil,-20.9829904,-40.9990597
As Sūsah,Syria,34.5200967,40.9612121
Karatau,Kazakhstan,43.1780169,70.455208
Bucu Lor,Indonesia,-6.5397069,110.8463512
Ciusul,Indonesia,-6.7392854,106.3449755
Cikijing,Indonesia,-7.0117033,108.3682641
Arjawinangun,Indonesia,-6.6312766,108.3848152
København,Denmark,55.6780389,12.577906
Smolenskaya,Russia,44.7891553,38.8019542
Rumbek,South Sudan,6.8072494,29.6788877
Tanggul Wetan,Indonesia,-8.1680148,113.4663255
Koran,Bosnia and Herzegovina,43.8098167,18.5653991
Trelleborg,Sweden,55.376816,13.1536197
Clones,Ireland,54.1794814,-7.2314132
Zeleneč,Czech Republic,50.1336212,14.6607051
Qi’an,China,34.341574,108.93977
Ngandangan,Indonesia,-6.695,111.464
Junshan,China,31.385597,120.980736
Kiamba,Philippines,5.9877589,124.6243344
Pingxiang,China,27.622768,113.854556
Düsseldorf,Germany,51.1879547,6.8173593
Maslovka,Russia,51.752684,36.1522509
Berlin,Germany,52.5121401,13.414046
Buyant,Mongolia,48.1735752,91.7678144
Cijapar,Indonesia,-6.9034154,106.4206269
An Châu,Vietnam,21.355574,106.8355372
Snegiri,Russia,55.8874526,37.0330937
Bandar-e Māhshahr,Iran,30.5619807,49.1727178
Boketu,China,48.753596,121.9160381
Henghe,China,29.756501,121.507191
São Sebastião,Portugal,38.6681004,-27.0897051
Mander,Indonesia,-6.2360264,106.3198908
Ulan Hua,China,41.5220136,111.7047656
Guachetá,Colombia,5.3794023,-73.6557707
Caocun,China,43.817071,125.323544
An Lão,Vietnam,14.5717294,108.8551484
Pirassununga,Brazil,-21.9896473,-47.4220818
Nyagan,Russia,62.471883,65.5542239
Zishan,China,24.922044,118.223965
Carrigtwohill,Ireland,51.908209,-8.259128
Sioux Falls,United States,43.521619,-96.722641
San Miguel,Mexico,19.3579802,-99.0806088
La Tigra,Argentina,-37.7912944,-58.8489331
Agusan,Philippines,7.1071694,125.6472799
Tambo,Peru,-12.95689,-74.023193
Wujing,China,25.261992,114.593792
Albion,Mauritius,-20.2081037,57.408999
Longsheng,China,25.797931,110.011238
Bay Roberts,Canada,47.59989,-53.26478
Guane,Cuba,22.1998606,-84.0880839
Debrecen,Hungary,47.5202786,17.5142121
Chaguaní,Colombia,4.949601,-74.593836
Sokoto,Nigeria,13.0058731,5.2475518
Nanling,China,30.914922,118.334359
Tianshan,China,32.627137,119.257096
Pallasovka,Russia,50.0429768,46.8886722
Alepoú,Greece,39.6185297,19.8966576
Saint-Étienne,France,45.4815563,4.3637137
Vetluzhskiy,Russia,58.3669548,45.5416034
Thị Trấn Bình Mỹ,Vietnam,20.4915633,106.0081819
Dumbéa,New Caledonia,-22.1678006,166.4574811
Pinglumiao,China,34.90994,109.73445
Tha Yang,Thailand,12.9714369,99.8991604
Águas Vermelhas,Brazil,-15.7311162,-41.5212742
Sarov,Russia,54.920665,43.347223
Caluquembe,Angola,-13.7866658,14.687936
Caruaru,Brazil,-8.2849639,-35.9701874
Shanglaxiu,China,32.848472,96.583409
Bowang,China,31.558471,118.844538
Aucayacu,Peru,-8.928324,-76.1116997
Puqian,China,20.023731,110.580002
Kertapura,Indonesia,-8.6842819,115.1829629
Porto Salvo,Portugal,38.7157106,-9.3069187
Kapinango,Indonesia,-6.4127,105.8625
Envigado,Colombia,6.1747517,-75.5160235
Sinjār,Syria,35.5916647,37.0051383
La Virginia,Colombia,4.88917,-75.870743
Miaoxi,China,30.779444,120.00922
Göteborg,Sweden,57.6893251,11.9388513
Tynne,Ukraine,51.1665287,26.7693629
Trollhättan,Sweden,58.2804163,12.2979387
Puerto Mayor Otaño,Paraguay,-26.3018088,-54.7192376
Roza,Russia,52.6053795,39.5788904
Xiashuitou,China,39.50725,112.083556
Shuiche,China,27.676355,110.996803
Mhamid,Morocco,29.8257743,-5.7234007
Boden,Sweden,65.8261477,21.7037935
Kabasalan,Philippines,7.7916349,122.7785327
Ferreñafe,Peru,-6.6382226,-79.7904475
Peyima,Sierra Leone,8.7550575,-11.044307
Kuantan,Malaysia,3.9671435,103.40391
Kukuna,Sierra Leone,9.141067,-12.664461
Didi Lilo,Georgia,41.7260416,44.9621678
Johogunung,Indonesia,-6.721769,111.5021144
Penteado,Portugal,38.6385863,-8.9561211
Nekrasovka,Russia,55.6152783,37.9416367
Båstad,Sweden,56.4273888,12.8477217
Taavetti,Finland,60.1996809,24.8958285
Meghrashen,Armenia,40.6690083,43.9553461
Kolape,Philippines,5.07028,119.89694
Tanza,Philippines,14.3836409,120.8215431
Peixing,China,37.0030288,119.9026703
Vilhelmina,Sweden,64.58897,18.6667119
Kadupayung,Indonesia,-6.3629515,105.9156477
Merdeka,Indonesia,-6.9136675,107.6200524
Cuyotenango,Guatemala,14.540627,-91.570932
Sukamaju,Indonesia,-6.4185424,106.8502879
Rogóźno,Poland,53.5484541,18.9455238
Linköping,Sweden,57.9936068,16.3041503
Tangga’an,China,35.136722,102.8777
Kolindrós,Greece,40.479174,22.4845811
Malaba,Kenya,0.636206,34.2782765
Grimshaw,Canada,45.0417524,-73.9260044
Fershampenuaz,Russia,53.5199891,59.8158991
Ningdun,China,30.456361,119.117626
Haarlem,Netherlands,52.3626877,4.6195236
Azara,Argentina,-34.7008122,-58.7034275
Lingkou,China,26.82808,114.835777
Al Mazra‘ah ash Sharqīyah,Palestinian Territory,32.00018,35.28152
Livádion,Greece,37.1426639,24.5137742
Lac-Mégantic,Canada,45.588882,-70.903207
Lipka,Poland,53.4835228,17.2120661
Arraial do Cabo,Brazil,-22.9657374,-42.0279869
Fuhe,China,47.298877,132.09903
Strezhevoy,Russia,60.7353362,77.6065163
Zárate,Argentina,-34.7264519,-58.6055652
Fuliang,China,29.703113,107.389298
Guadalupe,Mexico,25.6775595,-100.2596935
Kombësi,Albania,41.58167,19.98556
Gaoqiao,China,31.364902,108.249509
Quebo,Guinea-Bissau,11.3410027,-14.935965
Cherëmukhovo,Russia,60.3435461,59.9882605
Postira,Croatia,43.3755098,16.6309128
Bida,Nigeria,9.0796794,6.0097018
Macarse,Philippines,15.42495,120.77476
Nantes,France,47.2195152,-1.5651373
Reshui,China,36.219687,98.166902
Tong’an,China,24.722747,118.152148
Vesoul,France,47.6022755,6.2194418
Yanglang,China,34.272117,108.084731
Smiřice,Czech Republic,50.2997788,15.865081
Jiyizhuang,China,39.239268,113.494587
Karlskrona,Sweden,56.1688881,15.6354869
Omīdcheh,Iran,38.1283,46.678551
Tchamba,Togo,9.029518,1.4168974
Nova Granada,Brazil,-20.5897439,-49.318099
Jiamaying,China,34.6914551,112.4962138
Tarnawatka,Poland,50.5368321,23.4027578
Zaria,Nigeria,11.0855409,7.7199454
Ulety,Russia,51.3591174,112.484985
Zaragoza,Spain,41.6286623,-0.8744828
Wohyń,Poland,51.7567459,22.7817467
Miastków Kościelny,Poland,51.8976469,21.8061634
Śmiłowo,Poland,51.777114,16.818952
Kelasuri,Georgia,43.0225426,41.1157847
Gorey,Ireland,52.665267,-6.308522
Jiguaní,Cuba,20.3650844,-76.4302771
Queenstown,South Africa,-31.9721616,27.0382158
Gakem,Nigeria,6.7703871,8.9935558
Chrast,Czech Republic,49.879152,15.9316109
Cilentung,Indonesia,-6.3347209,105.9552997
Lužani,Croatia,45.1454871,17.6789782
Vynohradivka,Ukraine,45.6808113,28.5688631
Santol,Philippines,15.1650908,120.5657329
Szombathely,Hungary,46.3743832,17.7845904
Bouillon,Belgium,49.8417042,5.1214901
Villa La Angostura,Argentina,-40.7632504,-71.638725
Xianchiyu,China,29.46392,110.4714
Matagalpa,Nicaragua,12.9290069,-85.9151211
